{
"type": "FeatureCollection",
"name": "ev.geo",
"crs": { "type": "name", "properties": { "name": "urn:ogc:def:crs:OGC:1.3:CRS84" } },
"features": [
{ "type": "Feature", "properties": { "bus": "p13udt11762lv", "low_bus": "bus_cs_940_7036625_publiclevel272ac", "line_name": "Line.line_bus_cs_940_7036625_publiclevel272ac", "load_name": "Load.load_cs_940_7036625_publiclevel272ac" }, "geometry": { "type": "Point", "coordinates": [ -122.245767056894863, 37.816642142612892 ] } },
{ "type": "Feature", "properties": { "bus": "p13udt6184lv", "low_bus": "bus_cs_917_3960170_homelevel118ac", "line_name": "Line.line_bus_cs_917_3960170_homelevel118ac", "load_name": "Load.load_cs_917_3960170_homelevel118ac" }, "geometry": { "type": "Point", "coordinates": [ -122.248460384585897, 37.825579188272265 ] } },
{ "type": "Feature", "properties": { "bus": "p13ulv13772", "low_bus": "bus_cs_917_4516167_homelevel118ac", "line_name": "Line.line_bus_cs_917_4516167_homelevel118ac", "load_name": "Load.load_cs_917_4516167_homelevel118ac" }, "geometry": { "type": "Point", "coordinates": [ -122.248559861651046, 37.825426789807508 ] } },
{ "type": "Feature", "properties": { "bus": "p13ulv19818", "low_bus": "bus_cs_940_7774084_homelevel118ac", "line_name": "Line.line_bus_cs_940_7774084_homelevel118ac", "load_name": "Load.load_cs_940_7774084_homelevel118ac" }, "geometry": { "type": "Point", "coordinates": [ -122.249644524764776, 37.813689787566631 ] } },
{ "type": "Feature", "properties": { "bus": "p13ulv26489", "low_bus": "bus_cs_939_1470189_homelevel118ac", "line_name": "Line.line_bus_cs_939_1470189_homelevel118ac", "load_name": "Load.load_cs_939_1470189_homelevel118ac" }, "geometry": { "type": "Point", "coordinates": [ -122.243977072430212, 37.813527366602635 ] } },
{ "type": "Feature", "properties": { "bus": "p13ulv27214", "low_bus": "bus_cs_940_2481538_homelevel118ac", "line_name": "Line.line_bus_cs_940_2481538_homelevel118ac", "load_name": "Load.load_cs_940_2481538_homelevel118ac" }, "geometry": { "type": "Point", "coordinates": [ -122.250407174775134, 37.818038904232942 ] } },
{ "type": "Feature", "properties": { "bus": "p13ulv27249", "low_bus": "bus_cs_940_2420580_homelevel118ac", "line_name": "Line.line_bus_cs_940_2420580_homelevel118ac", "load_name": "Load.load_cs_940_2420580_homelevel118ac" }, "geometry": { "type": "Point", "coordinates": [ -122.251002835451914, 37.818682615492463 ] } },
{ "type": "Feature", "properties": { "bus": "p13ulv27679", "low_bus": "bus_cs_917_2561921_worklevel272ac", "line_name": "Line.line_bus_cs_917_2561921_worklevel272ac", "load_name": "Load.load_cs_917_2561921_worklevel272ac" }, "geometry": { "type": "Point", "coordinates": [ -122.244290000711757, 37.820721736182705 ] } },
{ "type": "Feature", "properties": { "bus": "p13ulv63430", "low_bus": "bus_cs_939_4363948_homelevel118ac", "line_name": "Line.line_bus_cs_939_4363948_homelevel118ac", "load_name": "Load.load_cs_939_4363948_homelevel118ac" }, "geometry": { "type": "Point", "coordinates": [ -122.24396186832135, 37.814633033630571 ] } },
{ "type": "Feature", "properties": { "bus": "p13ulv64740", "low_bus": "bus_cs_917_2100133_publiclevel272ac", "line_name": "Line.line_bus_cs_917_2100133_publiclevel272ac", "load_name": "Load.load_cs_917_2100133_publiclevel272ac" }, "geometry": { "type": "Point", "coordinates": [ -122.232450820472224, 37.825106600222604 ] } },
{ "type": "Feature", "properties": { "bus": "p13ulv64776", "low_bus": "bus_cs_918_7807649_worklevel272ac", "line_name": "Line.line_bus_cs_918_7807649_worklevel272ac", "load_name": "Load.load_cs_918_7807649_worklevel272ac" }, "geometry": { "type": "Point", "coordinates": [ -122.231544858171162, 37.824812277824876 ] } },
{ "type": "Feature", "properties": { "bus": "p13ulv71181", "low_bus": "bus_cs_917_6118640_homelevel118ac", "line_name": "Line.line_bus_cs_917_6118640_homelevel118ac", "load_name": "Load.load_cs_917_6118640_homelevel118ac" }, "geometry": { "type": "Point", "coordinates": [ -122.249633502058472, 37.823757221292887 ] } },
{ "type": "Feature", "properties": { "bus": "p13ulv72980", "low_bus": "bus_cs_940_1108472_homelevel118ac", "line_name": "Line.line_bus_cs_940_1108472_homelevel118ac", "load_name": "Load.load_cs_940_1108472_homelevel118ac" }, "geometry": { "type": "Point", "coordinates": [ -122.249716539627968, 37.820044402531209 ] } },
{ "type": "Feature", "properties": { "bus": "p13ulv72997", "low_bus": "bus_cs_917_3994200_homelevel118ac", "line_name": "Line.line_bus_cs_917_3994200_homelevel118ac", "load_name": "Load.load_cs_917_3994200_homelevel118ac" }, "geometry": { "type": "Point", "coordinates": [ -122.249299246702805, 37.822369925717418 ] } },
{ "type": "Feature", "properties": { "bus": "p13ulv82769", "low_bus": "bus_cs_940_3444919_homelevel118ac", "line_name": "Line.line_bus_cs_940_3444919_homelevel118ac", "load_name": "Load.load_cs_940_3444919_homelevel118ac" }, "geometry": { "type": "Point", "coordinates": [ -122.250018317591056, 37.813800324014679 ] } },
{ "type": "Feature", "properties": { "bus": "p13ulv82782", "low_bus": "bus_cs_940_8661525_homelevel118ac", "line_name": "Line.line_bus_cs_940_8661525_homelevel118ac", "load_name": "Load.load_cs_940_8661525_homelevel118ac" }, "geometry": { "type": "Point", "coordinates": [ -122.249040451526398, 37.813493832111021 ] } }
]
}
